City_ID,City,Country,Temperature,Humidity,Cloudiness,Windspeed,Latitude,Longitude,Date
0,punta arenas,CL,41.11,70,75,18.41,-53.15,-70.9167,1687027278
1,bilibino,RU,41.85,66,100,6.8,68.0546,166.4372,1687027370
2,elbistan,TR,69.67,54,0,5.95,38.2059,37.1983,1687027753
3,sur,OM,87.75,66,74,8.32,22.5667,59.5289,1687027372
4,bredasdorp,ZA,52.68,75,0,9.98,-34.5322,20.0403,1687027367
5,kerben,KG,77.5,30,97,2.86,40.2951,72.1863,1687027753
6,ar rutbah,IQ,89.65,18,5,9.8,33.0381,40.2848,1687027753
7,holualoa,US,77.56,78,20,4.61,19.6228,-155.9522,1687027374
8,colonia,DE,81.82,33,0,3.44,50.9333,6.95,1687027382
9,lazaro cardenas,MX,91.53,55,86,10.56,17.9583,-102.2,1687027370
10,port elizabeth,ZA,59.09,93,100,18.41,-33.918,25.5701,1687027368
11,hilo,US,86.29,83,75,6.91,19.7297,-155.09,1687027578
12,wailua homesteads,US,77.86,80,75,11.5,22.0669,-159.378,1687027367
13,palikir - national government center,FM,81.55,79,100,14.65,6.9248,158.1611,1687027409
14,ndele,CF,77.81,73,99,2.35,8.4109,20.6473,1687027411
15,levuka,CA,75.02,45,100,10.09,50.1834,-105.4011,1687027401
16,adamstown,PN,71.78,74,9,8.72,-25.066,-130.1015,1687027368
17,madera,US,93.87,32,0,5.86,37.1666,-119.8343,1687027547
18,rio do sul,BR,67.39,57,0,3.2,-27.2142,-49.6431,1687027754
19,shingu,JP,68.7,79,100,5.99,33.7333,135.9833,1687027754
20,ebon,MH,81.28,80,97,12.73,4.582,168.6964,1687027754
21,grytviken,GS,32.4,88,48,10.78,-54.2811,-36.5092,1687027368
22,puerto natales,CL,41.45,65,40,14.97,-51.7236,-72.4875,1687027369
23,afif,SA,86.83,9,0,12.01,23.9065,42.9172,1687027404
24,puerto ayora,EC,87.76,87,100,13.0,-0.7393,-90.3518,1687027370
25,namdrik,MH,82.38,78,100,15.5,5.5994,168.1028,1687027755
26,angaur state,PW,81.5,77,100,3.09,6.906,134.13,1687027755
27,ghadamis,LY,87.62,15,0,8.59,30.1337,9.5007,1687027755
28,port-aux-francais,TF,40.64,71,17,21.03,-49.35,70.2167,1687027367
29,plastun,RU,56.35,67,0,7.65,44.7561,136.2939,1687027755
30,haiku-pauwela,US,80.17,59,20,7.0,20.9219,-156.3051,1687027372
31,sodra sandby,SE,60.66,94,100,16.44,56.5667,16.6167,1687027755
32,ostrov,RU,65.93,53,99,4.99,57.3439,28.3537,1687027755
33,bethel,US,76.01,53,40,9.22,41.3712,-73.414,1687027370
34,hithadhoo,MV,82.26,73,93,5.12,-0.6,73.0833,1687027404
35,vila velha,BR,76.95,87,40,13.8,-20.3297,-40.2925,1687027660
36,vadso,NO,52.68,70,20,10.36,70.0744,29.7487,1687027384
37,blackmans bay,AU,46.53,78,65,4.72,-43.0167,147.3167,1687027369
38,macapa,BR,80.58,94,100,2.3,0.0389,-51.0664,1687027622
39,luderitz,NA,57.24,90,45,7.63,-26.6481,15.1594,1687027381
40,ilulissat,GL,35.62,64,75,2.3,69.2167,-51.1,1687027386
41,west island,CC,78.78,83,23,6.91,-12.1568,96.8225,1687027370
42,hingoli,IN,89.42,41,38,15.3,19.7167,77.15,1687027756
43,talnakh,RU,45.21,90,96,6.62,69.4865,88.3972,1687027371
44,petropavlovsk-kamchatsky,RU,45.19,100,100,6.71,53.0452,158.6483,1687027371
45,vacaria,BR,48.67,71,2,7.16,-28.5122,-50.9339,1687027756
46,pacasmayo,PE,76.12,70,12,16.46,-7.4006,-79.5714,1687027756
47,port mathurin,MU,75.83,76,16,3.76,-19.6833,63.4167,1687027377
48,avarua,CK,69.85,83,75,9.22,-21.2078,-159.775,1687027366
49,mabini,PH,75.85,88,8,3.56,15.6,120.9833,1687027757
50,abqaiq,SA,89.67,21,8,5.46,25.9371,49.6776,1687027757
51,lebu,CL,53.55,54,100,7.92,-37.6167,-73.65,1687027372
52,edinburgh of the seven seas,SH,56.43,84,100,24.9,-37.0676,-12.3116,1687027368
53,vernon,CA,73.92,43,80,8.99,50.2581,-119.2691,1687027757
54,badger,US,67.37,63,75,3.44,64.8,-147.5333,1687027365
55,kingston,JM,94.24,58,20,24.16,17.997,-76.7936,1687027391
56,arrifes,PT,68.25,64,20,11.5,37.7667,-25.7,1687027390
57,flying fish cove,CX,78.48,88,100,9.22,-10.4217,105.6791,1687027370
58,mombetsu,JP,57.78,71,9,18.88,44.3525,143.3525,1687027757
59,mejit,MH,81.84,77,100,10.69,10.2753,170.8646,1687027757
60,lerwick,GB,53.6,88,27,10.78,60.1545,-1.1494,1687027381
61,invercargill,NZ,39.16,92,4,5.08,-46.4,168.35,1687027376
62,ushuaia,AR,42.46,45,0,4.61,-54.8,-68.3,1687027368
63,constantia,RO,70.48,81,4,1.92,44.1833,28.65,1687027290
64,la'ie,US,82.36,73,33,13.69,21.6477,-157.9253,1687027383
65,ribeira grande,PT,70.77,68,20,14.97,38.5167,-28.7,1687027374
66,iqaluit,CA,37.13,69,75,16.11,63.7506,-68.5145,1687027366
67,takoradi,GH,79.47,83,92,9.24,4.8845,-1.7554,1687027758
68,campoverde,PE,80.29,48,76,1.41,-8.4753,-74.8058,1687027758
69,tolanaro,MG,69.87,78,40,6.91,-25.0319,46.9987,1687027366
70,hastings,GB,74.25,23,100,5.79,50.8552,0.5729,1687027758
71,keflavik,IS,51.71,66,75,8.05,64.0049,-22.5624,1687027399
72,sim,RU,57.11,88,1,3.91,54.993,57.6982,1687027758
73,whitehorse,CA,56.17,37,40,4.61,60.7161,-135.0538,1687027254
74,hermanus,ZA,54.81,76,0,13.13,-34.4187,19.2345,1687027372
75,ancud,CL,47.12,65,100,3.24,-41.8697,-73.8203,1687027197
76,utrik,MH,81.14,81,100,13.22,11.2278,169.8474,1687027384
77,rongelap,MH,81.5,78,100,13.94,11.1635,166.8941,1687027414
78,waitangi,NZ,48.81,59,100,15.55,-43.9535,-176.5597,1687027367
79,papatowai,NZ,43.63,91,100,6.49,-46.5619,169.4708,1687027383
80,manokwari,ID,78.01,83,100,7.34,-0.8667,134.0833,1687027378
81,kavaratti,IN,84.38,74,95,15.5,10.5669,72.642,1687027379
82,antofagasta,CL,69.08,63,6,6.22,-23.65,-70.4,1687027621
83,aykhal,RU,47.05,83,87,20.07,66.0,111.5,1687027404
84,yellowknife,CA,60.57,51,75,12.66,62.456,-114.3525,1687027373
85,necochea,AR,51.08,77,97,13.42,-38.5473,-58.7368,1687027391
86,rathdrum,US,70.86,53,100,11.5,47.8137,-116.892,1687027759
87,touros,BR,80.1,80,46,13.18,-5.1989,-35.4608,1687027377
88,naze,JP,74.32,89,100,17.18,28.3667,129.4833,1687027759
89,box elder,US,67.77,43,84,6.42,41.5005,-112.8764,1687027760
90,berezovo,RU,37.78,74,27,7.67,63.9381,65.0419,1687027409
91,midvagur,FO,54.43,82,75,13.8,62.0511,-7.1939,1687027382
92,al bardiyah,LY,72.45,75,0,16.2,31.7561,25.0865,1687027760
93,isafjordur,IS,50.04,71,20,9.22,66.0755,-23.124,1687027377
94,mariinsk,RU,56.3,68,100,6.2,56.2139,87.7472,1687027760
95,chonchi,CL,49.12,63,100,1.23,-42.6128,-73.8092,1687027384
96,mariehamn,AX,67.86,64,0,5.75,60.0973,19.9348,1687027760
97,maxixe,MZ,66.02,88,0,0.0,-23.8597,35.3472,1687027760
98,el nido,PH,80.8,76,74,3.44,11.1858,119.3956,1687027760
99,sayre,US,74.19,45,7,13.49,41.979,-76.5155,1687027760
100,tiksi,RU,47.98,61,96,11.14,71.6872,128.8694,1687027380
101,kapuskasing,CA,73.4,28,75,6.91,49.4169,-82.4331,1687027403
102,hammerfest,NO,48.65,71,73,9.22,70.6634,23.6821,1687027411
103,albany,US,66.92,75,99,1.01,42.6001,-73.9662,1687027227
104,nicoya,CR,88.11,62,81,4.83,10.1483,-85.452,1687027386
105,kapoeta,SS,79.66,53,83,1.81,4.7717,33.5903,1687027761
106,iskateley,RU,37.36,72,82,14.79,67.6803,53.1512,1687027368
107,port alfred,ZA,57.18,90,61,3.0,-33.5906,26.891,1687027381
108,east london,ZA,61.74,82,40,16.11,-33.0153,27.9116,1687027419
109,acarau,BR,83.62,70,18,11.95,-2.8856,-40.12,1687027761
110,barguzin,RU,54.55,74,100,4.34,53.6167,109.6167,1687027761
111,kenai,US,55.49,71,75,11.5,60.5544,-151.2583,1687027548
112,margaret river,AU,53.35,70,95,6.31,-33.95,115.0667,1687027366
113,amahai,ID,82.0,89,100,4.56,-3.3333,128.9167,1687027761
114,cestos city,LR,79.21,77,100,8.39,5.46,-9.5828,1687027762
115,wagoner,US,88.86,60,49,6.15,35.9595,-95.3694,1687027762
116,prince albert,CA,71.55,49,75,6.91,53.2001,-105.7677,1687027762
117,mariental,NA,60.62,17,0,10.83,-24.6333,17.9667,1687027762
118,sabang,ID,82.44,78,100,23.2,5.8933,95.3214,1687027402
119,iwon-up,KP,72.09,71,68,6.71,40.3231,128.6553,1687027762
120,arraial do cabo,BR,71.46,73,75,9.22,-22.9661,-42.0278,1687027382
121,lihue,US,78.46,74,75,11.5,21.9789,-159.3672,1687027370
122,tazovsky,RU,34.61,99,100,9.51,67.4667,78.7,1687027370
123,belfast,GB,64.99,72,40,6.91,54.5833,-5.9333,1687027724
124,toliara,MG,70.05,64,0,9.93,-23.35,43.6667,1687027400
125,port lincoln,AU,52.0,65,6,9.69,-34.7333,135.8667,1687027369
126,malvan,IN,83.88,75,6,4.29,16.0667,73.4667,1687027392
127,dunedin,NZ,50.81,85,98,11.01,-45.8742,170.5036,1687027762
128,nemuro,JP,55.8,79,0,11.52,43.3236,145.575,1687027421
129,carnarvon,AU,64.33,48,100,11.95,-24.8667,113.6333,1687027371
130,bubaque,GW,82.13,81,100,11.5,11.2833,-15.8333,1687027407
131,aasiaat,GL,32.67,72,13,5.88,68.7098,-52.8699,1687027383
132,vilyuchinsk,RU,46.67,97,100,4.41,52.9306,158.4028,1687027376
133,geraldton,AU,52.21,62,0,8.05,-28.7667,114.6,1687027406
134,ciudad general teran,MX,102.7,25,6,12.68,25.2667,-99.6833,1687027763
135,tannum sands,AU,57.74,88,40,6.91,-23.9504,151.3693,1687027763
136,ust'-ilimsk,RU,55.69,62,75,5.21,58.0006,102.6619,1687027763
137,smithers,CA,52.12,58,75,0.0,54.7804,-127.1743,1687027383
138,saipan,MP,81.64,100,20,10.36,15.1355,145.701,1687027373
139,jamestown,US,73.53,42,20,9.22,42.097,-79.2353,1687027379
140,hauterive,FR,79.56,65,95,2.53,46.0901,3.4459,1687027763
141,st. john's,CA,57.15,86,100,10.36,47.5649,-52.7093,1687027372
142,tura,IN,71.24,98,99,4.21,25.5198,90.2201,1687027373
143,crane,US,100.54,15,98,8.72,31.3974,-102.3501,1687027379
144,longyearbyen,SJ,44.44,70,75,11.5,78.2186,15.6401,1687027369
145,san juanito,MX,82.35,15,100,10.58,28.0,-107.5833,1687027578
146,onega,RU,42.71,65,2,5.23,63.9061,38.1404,1687027376
147,khilok,RU,51.93,99,100,3.27,51.3674,110.4676,1687027764
148,phan rang-thap cham,VN,78.44,85,93,3.91,11.5667,108.9833,1687027764
149,isiro,CD,69.51,95,92,3.69,2.7739,27.616,1687027764
150,kerikeri,NZ,45.91,95,58,2.91,-35.2268,173.9474,1687027413
151,glace bay,CA,70.27,83,75,10.36,46.1969,-59.957,1687027764
152,scituate,US,66.38,88,100,3.44,42.1959,-70.7259,1687027502
153,arenapolis,BR,81.25,38,0,6.87,-14.4503,-56.8461,1687027764
154,newman,US,92.05,20,1,4.27,37.3138,-121.0208,1687027389
155,junin de los andes,AR,43.75,67,99,1.7,-39.9504,-71.0694,1687027378
156,marsabit,KE,68.79,61,11,21.21,2.3284,37.9899,1687027765
157,bouarfa,MA,90.41,9,0,16.33,32.53,-1.95,1687027765
158,las heras,AR,43.72,25,100,16.58,-46.5419,-68.9359,1687027699
159,elko,US,71.22,32,81,15.01,41.0002,-115.5012,1687027765
160,alice springs,AU,47.75,40,32,4.61,-23.7,133.8833,1687027387
161,amga,RU,51.26,84,20,2.44,60.8953,131.9608,1687027765
162,roswell,US,91.58,47,0,9.22,34.0232,-84.3616,1687027522
163,cambria,US,87.55,70,34,6.91,35.5641,-121.0808,1687027765
164,ranau,MY,69.55,98,100,1.32,5.9538,116.6641,1687027765
165,kemin,KG,70.41,68,4,9.44,42.7846,75.6892,1687027765
166,hawaiian paradise park,US,78.03,82,75,6.91,19.5933,-154.9731,1687027366
167,stanley,GB,67.28,65,0,5.75,54.868,-1.6985,1687027372
168,sumter,US,90.01,45,0,15.57,28.7086,-82.0831,1687027562
169,hadibu,YE,81.39,76,5,15.61,12.65,54.0333,1687027386
170,rahimatpur,IN,75.47,78,51,10.47,17.6,74.2,1687027766
171,dembi dolo,ET,59.94,94,100,1.92,8.5333,34.8,1687027766
172,yumaguzino,RU,59.67,89,100,3.65,52.9041,56.3933,1687027766
173,oryahovo,BG,60.75,89,100,10.78,43.7333,23.9667,1687027766
174,papao,PF,82.08,73,6,18.07,-17.75,-149.55,1687027766
175,nuuk,GL,45.21,53,20,15.01,64.1835,-51.7216,1687027416
176,vorgashor,RU,37.54,74,100,14.09,67.5833,63.95,1687027375
177,qaqortoq,GL,41.41,69,11,4.43,60.7167,-46.0333,1687027379
178,challapata,BO,51.22,9,4,8.05,-18.9,-66.7667,1687027766
179,kingscliff,AU,49.8,100,98,0.0,-28.2667,153.5667,1687027766
180,balabac,PH,79.68,81,38,2.39,7.9868,117.0645,1687027767
181,shubarkuduk,KZ,80.47,19,33,8.77,49.1447,56.4872,1687027767
182,dudinka,RU,45.63,76,100,4.59,69.4058,86.1778,1687027409
183,kyshtym,RU,50.18,66,23,6.44,55.714,60.5528,1687027767
184,qianjiang,CN,71.62,97,100,7.74,30.4151,112.8859,1687027768
185,kone,NC,61.21,80,0,3.36,-21.0595,164.8658,1687027383
186,tralee,IE,61.05,100,100,4.61,52.2704,-9.7026,1687027371
187,hamilton,US,80.74,48,20,3.44,39.1834,-84.5333,1687027327
188,thompson,CA,75.36,38,75,13.8,55.7435,-97.8558,1687027340
189,kitimat,CA,53.98,97,100,5.99,54.0524,-128.6534,1687027768
190,zindah jan,AF,88.74,12,0,6.29,34.3426,61.7468,1687027768
191,polyarnyy,RU,44.96,66,61,5.46,69.1989,33.4478,1687027768
192,ust-nera,RU,56.3,63,100,10.18,64.5667,143.2,1687027373
193,inari,FI,62.8,56,99,9.01,68.906,27.0288,1687027768
194,pangody,RU,34.0,97,100,14.58,65.85,74.4859,1687027391
195,cuatro cienegas de carranza,MX,100.11,24,1,3.56,26.9833,-102.0833,1687027769
196,rawlins,US,60.69,39,40,11.5,41.7911,-107.2387,1687027769
197,georgetown,MY,84.13,85,20,3.44,5.4112,100.3354,1687027371
198,saint-francois,FR,81.84,39,0,4.61,46.4154,3.9054,1687027380
199,arenas de san pedro,ES,83.21,36,15,4.94,40.2104,-5.0869,1687027770
200,fale old settlement,TK,83.68,70,5,10.71,-9.3852,-171.2468,1687027389
201,kismayo,SO,78.51,83,40,14.23,-0.3582,42.5454,1687027374
202,saudarkrokur,IS,59.11,70,100,4.63,65.7461,-19.6394,1687027399
203,karimganj,IN,74.79,97,100,3.31,24.8667,92.35,1687027770
204,davyd-haradok,BY,65.39,85,99,5.28,52.0566,27.2161,1687027771
205,yampil',UA,64.53,73,5,5.44,51.95,33.7833,1687027771
206,usinsk,RU,39.63,71,100,12.06,65.9939,57.5281,1687027520
207,freetown,SL,78.51,89,75,13.8,8.484,-13.2299,1687027399
208,kotabumi,ID,73.76,94,11,3.24,-4.8333,104.9,1687027771
209,cabo san lucas,MX,89.62,68,0,9.22,22.8909,-109.9124,1687027333
210,cumberland,US,87.87,38,0,11.5,35.0502,-78.8664,1687027757
211,usogorsk,RU,41.13,84,99,6.51,63.4106,48.6872,1687027771
212,chonglong,CN,70.18,93,100,3.2,29.7806,104.8522,1687027771
213,bikenibeu village,KI,80.56,89,75,2.3,1.3673,173.1241,1687027771
214,charlestown,AU,50.41,78,61,1.01,-32.95,151.6667,1687027772
215,naousa,GR,64.42,75,100,5.26,40.6329,22.0534,1687027772
216,las veredas,MX,88.97,55,0,13.8,23.1388,-109.7075,1687027772
217,les cayes,HT,85.96,69,100,11.36,18.2,-73.75,1687027401
218,bali,ID,77.97,89,11,3.62,-8.5,115.0,1687027772
219,arauco,CL,57.99,43,100,3.22,-37.2463,-73.3175,1687027772
220,fonte boa,BR,78.89,82,82,2.15,-2.4959,-66.2662,1687027772
221,mount gambier,AU,45.16,90,27,6.51,-37.8333,140.7667,1687027385
222,kodiak,US,51.31,82,75,4.61,57.79,-152.4072,1687027378
223,sars,RU,47.62,57,1,9.24,56.5502,57.1366,1687027772
224,yaren,NR,82.54,70,100,4.47,-0.5472,166.916,1687027772
225,happy valley-goose bay,CA,48.51,71,100,16.11,53.3168,-60.3315,1687027387
226,nova vicosa,BR,77.13,70,98,7.38,-17.8919,-39.3719,1687027220
227,mabaruma,GY,89.6,66,40,6.91,8.2,-59.7833,1687027773
228,sarangani,PH,82.83,75,90,8.61,5.4033,125.4636,1687027773
229,richards bay,ZA,70.47,51,0,14.36,-28.783,32.0377,1687027773
230,viborg,DK,66.2,88,52,6.87,56.4532,9.402,1687027773
231,lingcheng,CN,77.29,91,100,6.22,22.7072,110.3492,1687027773
232,campbellton,CA,52.25,90,100,9.01,48.0075,-66.6727,1687027773
233,villefranche-de-rouergue,FR,79.57,65,100,2.82,44.3333,2.0,1687027773
234,minas de barroteran,MX,98.13,35,53,5.99,27.6333,-101.2833,1687027773
235,princeville,CA,70.75,79,75,10.36,45.7668,-61.2985,1687027304
236,chail,IN,98.78,29,22,8.81,25.4333,81.6333,1687027774
237,tamanrasset,DZ,93.11,11,40,6.91,22.785,5.5228,1687027420
238,cooper's town,BS,84.24,69,95,6.64,26.8667,-77.5167,1687027774
239,selfoss,IS,57.04,78,100,7.63,63.9331,-20.9971,1687027774
240,olonkinbyen,SJ,38.77,99,100,12.33,70.9221,-8.7187,1687027388
241,san antonio de pale,GQ,76.69,78,100,12.95,-1.4014,5.6325,1687027367
242,malindi,KE,80.76,69,20,11.5,-3.2175,40.1191,1687027774
243,bridgewater,CA,56.62,94,100,14.97,44.3835,-64.5155,1687027504
244,annaba,DZ,71.56,83,0,10.36,36.9,7.7667,1687027774
245,doctor arroyo,MX,89.4,16,100,14.9,23.6667,-100.1833,1687027774
246,currais novos,BR,77.04,68,100,16.51,-6.2608,-36.5178,1687027774
247,katsuura,JP,70.11,85,53,11.12,35.1333,140.3,1687027774
248,ivot,RU,63.63,70,89,2.75,53.6756,34.1872,1687027775
249,callao,PE,73.69,68,100,6.91,-12.0667,-77.15,1687027393
250,kuusamo,FI,60.84,41,0,9.22,65.9667,29.1833,1687027775
251,awjilah,LY,79.68,42,0,16.37,29.1081,21.2869,1687027775
252,sitka,US,53.49,71,40,6.91,57.0531,-135.33,1687027389
253,ketchikan,US,51.78,81,75,5.75,55.3422,-131.6461,1687027775
254,ambodifotatra,MG,77.97,72,18,16.93,-16.9833,49.85,1687027775
255,mehtar lam,AF,86.83,45,0,3.78,34.6714,70.2094,1687027775
256,okha,RU,43.74,92,100,8.79,53.5739,142.9478,1687027400
257,coquimbo,CL,58.73,82,20,11.5,-29.9533,-71.3436,1687027186
258,santa cruz,BO,72.86,40,0,14.97,-17.8,-63.1667,1687027246
259,kill devil hills,US,78.8,70,40,9.22,36.0307,-75.676,1687027776
260,mazatlan,MX,88.92,70,100,5.99,23.2167,-106.4167,1687027776
261,huarmey,PE,75.27,70,13,10.33,-10.0681,-78.1522,1687027776
262,santo antonio do ica,BR,83.55,59,55,2.77,-3.1022,-67.9397,1687027776
263,broken hill,AU,45.75,84,2,8.23,-31.95,141.4333,1687027401
264,conyers,US,91.35,45,0,0.0,33.6676,-84.0177,1687027776
265,akdepe,TM,82.49,24,11,8.34,42.0551,59.3788,1687027776
266,durres,AL,64.58,65,96,13.02,41.3231,19.4414,1687027776
267,umluj,SA,89.44,47,0,3.27,25.0213,37.2685,1687027776
268,afaahiti,PF,80.47,76,30,16.98,-17.75,-149.2833,1687027385
269,guerrero negro,MX,73.0,58,100,17.16,27.9769,-114.0611,1687027369
270,corinto,GR,73.89,78,46,7.02,37.9407,22.9573,1687027776
271,walvis bay,NA,59.95,77,0,2.3,-22.9575,14.5053,1687027374
272,susuman,RU,59.67,54,89,3.42,62.7833,148.1667,1687027380
273,nova sintra,CV,71.24,81,100,7.83,14.8667,-24.7167,1687027369
274,buka,UZ,79.93,14,5,5.3,40.8108,69.1986,1687027777
275,caleta de carquin,PE,73.13,72,15,9.06,-11.0925,-77.6267,1687027401
276,atafu village,TK,83.21,75,20,7.94,-8.5421,-172.5159,1687027370
277,bouar,CF,67.33,95,99,1.45,5.934,15.596,1687027777
278,palu,ID,74.61,96,47,2.93,-0.8917,119.8707,1687027777
279,al jawf,SA,92.53,15,5,7.52,29.5,38.75,1687027409
280,malone,US,60.26,98,100,5.32,44.8487,-74.2949,1687027777
281,al qusayr,SY,69.12,80,1,6.38,34.5091,36.5798,1687027777
282,ostersund,SE,73.85,28,61,12.66,63.1792,14.6357,1687027613
283,slave lake,CA,60.78,41,20,14.97,55.2834,-114.769,1687027755
284,ugurludag,TR,60.3,87,95,7.2,40.4463,34.4526,1687027778
285,okhotsk,RU,48.51,90,79,1.32,59.3833,143.3,1687027394
286,verkhnevilyuysk,RU,48.83,74,83,5.3,63.4453,120.3167,1687027778
287,codrington,AU,42.37,94,5,10.51,-38.2667,141.9667,1687027396
288,presque isle,US,57.63,78,100,14.97,46.6811,-68.0159,1687027778
289,khandyga,RU,52.86,77,68,2.46,62.6667,135.6,1687027389
290,birjand,IR,84.67,8,0,9.22,32.8663,59.2211,1687027778
291,mount pleasant,US,89.31,58,0,6.91,32.7941,-79.8626,1687027511
292,san patricio,US,100.49,35,78,16.69,28.017,-97.5169,1687027371
293,portland,US,65.28,69,100,4.61,45.5234,-122.6762,1687027102
294,aripuana,BR,88.43,43,92,3.11,-9.1667,-60.6333,1687027778
295,sochi,RU,68.09,79,0,5.79,43.6,39.7303,1687027525
296,saint-philippe,RE,74.79,83,31,13.8,-21.3585,55.7679,1687027398
297,delvada,IN,85.42,70,100,17.27,20.7667,71.0333,1687027779
298,mil'kovo,RU,71.74,69,75,8.43,55.6078,37.7956,1687027779
299,filey,GB,65.88,64,100,4.0,54.21,-0.2892,1687027779
300,tanabe,JP,68.97,95,100,1.81,33.7333,135.3667,1687027419
301,barranca,PE,73.17,70,68,9.82,-10.75,-77.7667,1687027779
302,qiancheng,CN,78.55,80,89,8.66,27.185,109.7654,1687027779
303,nizhneangarsk,RU,47.07,50,100,3.8,55.7833,109.55,1687027779
304,prince rupert,CA,47.89,90,100,8.05,54.3161,-130.3201,1687027248
305,lejanias,CO,70.65,85,100,2.91,3.5251,-74.0216,1687027779
306,szentlorinc,HU,68.88,76,100,4.52,46.0402,17.9872,1687027779
307,udachny,RU,50.45,57,61,20.45,66.4167,112.4,1687027366
308,wagar,SD,98.35,28,43,5.82,16.1525,36.2032,1687027780
309,san agustin acasaguastlan,GT,88.11,39,7,5.64,14.95,-89.9667,1687027780
310,bodden town,KY,89.6,66,20,11.5,19.2833,-81.25,1687027778
311,rio grande,BR,60.91,56,5,13.94,-32.035,-52.0986,1687027140
312,college,US,67.46,63,75,3.44,64.8569,-147.8028,1687027371
313,basse-terre,GP,85.24,58,75,12.66,16.1667,-61.6667,1687027780
314,santa marta,CO,84.25,84,75,6.91,11.2408,-74.199,1687027780
315,qazigund,IN,62.47,74,14,0.92,33.6333,75.15,1687027780
316,chibougamau,CA,67.62,60,75,9.22,49.9168,-74.3659,1687027403
317,norfolk,US,66.6,90,100,4.61,42.1668,-71.2495,1687027780
318,niafunke,ML,96.6,32,100,3.4,15.9322,-3.9906,1687027780
319,myory,BY,67.84,58,100,6.2,55.6217,27.6299,1687027780
320,ubinskoye,RU,53.56,82,9,8.41,55.3068,79.6802,1687027781
321,jatiroto,ID,72.48,94,52,2.13,-7.8833,111.1167,1687027781
322,daru,PG,76.68,71,100,12.33,-9.0763,143.2092,1687027781
323,marsh harbour,BS,85.1,67,14,9.17,26.5412,-77.0636,1687027695
324,cidreira,BR,59.4,65,0,14.12,-30.1811,-50.2056,1687027414
325,saint-pierre,RE,74.88,83,75,3.44,-21.3393,55.4781,1687027781
326,kingaroy,AU,46.71,94,97,1.05,-26.5333,151.8333,1687027781
327,itamaraca,BR,80.65,82,89,7.47,-7.7478,-34.8256,1687027781
328,namsos,NO,66.11,59,34,4.61,64.4662,11.4957,1687027781
329,ujae,MH,81.63,80,100,17.07,8.9322,165.7642,1687027781
330,san fernando,PH,82.13,85,2,3.27,15.0286,120.6898,1687027781
331,remire-montjoly,GF,87.84,62,40,9.22,4.9167,-52.2667,1687027380
332,les avirons,RE,71.69,83,75,3.44,-21.2418,55.3394,1687027782
333,as sulayyil,SA,97.05,11,7,8.1,20.4607,45.5779,1687027782
334,ataq,YE,83.16,50,75,4.9,14.5377,46.8319,1687027782
335,suva,FJ,71.08,100,75,2.3,-18.1416,178.4415,1687027337
336,florence,IT,77.74,57,0,4.61,43.7667,11.25,1687027782
337,la tijera,MX,87.24,24,43,5.48,19.9,-104.4,1687027782
338,coyhaique,CL,41.61,56,0,4.61,-45.5752,-72.0662,1687027782
339,eyl,SO,79.27,72,1,21.94,7.9803,49.8164,1687027782
340,novoishimskiy,KZ,60.73,91,100,6.2,53.1981,66.7694,1687027390
341,stuttgart,DE,78.4,27,0,4.61,48.7823,9.177,1687027782
342,saynshand,MN,80.26,30,100,17.47,44.8824,110.1163,1687027782
343,hassi messaoud,DZ,100.26,14,0,5.75,31.6804,6.0729,1687027783
344,itaituba,BR,82.56,78,75,8.05,-4.2761,-55.9836,1687027741
345,isangel,VU,69.66,62,1,11.63,-19.55,169.2667,1687027403
346,galveston,US,100.04,73,40,13.8,29.3669,-94.9669,1687027783
347,sisimiut,GL,38.01,62,29,8.43,66.9395,-53.6735,1687027417
348,egilsstadir,IS,75.11,33,0,16.11,65.2653,-14.3948,1687027783
349,weno,FM,78.75,94,100,5.75,7.4515,151.8468,1687027394
350,bertioga,BR,72.01,64,20,8.05,-23.8544,-46.1386,1687027783
351,edson,CA,53.74,66,100,4.61,53.5835,-116.4356,1687027783
352,koungheul,SN,97.66,40,100,3.33,13.9833,-14.8,1687027783
353,cabedelo,BR,81.27,85,97,9.13,-6.9811,-34.8339,1687027605
354,kailua-kona,US,81.28,78,20,4.61,19.6406,-155.9956,1687027375
355,layyah,PK,96.24,35,6,12.57,30.9613,70.939,1687027783
356,koluszki,PL,65.97,100,49,6.55,51.7387,19.8199,1687027784
357,mapimi,MX,93.83,22,7,6.6,25.8167,-103.85,1687027784
358,zhigalovo,RU,51.08,70,69,0.49,54.8097,105.1578,1687027784
359,humaita,BR,82.36,62,100,2.66,-7.5061,-63.0208,1687027784
360,sirte,LY,71.6,81,0,9.89,31.2089,16.5887,1687027784
361,mahalapye,BW,60.82,32,0,6.87,-23.1041,26.8142,1687027784
362,tibati,CM,69.8,92,100,1.88,6.4667,12.6333,1687027784
363,umm as sahik,SA,95.14,32,4,9.06,26.6536,49.9164,1687027784
364,kuqa,CN,78.08,28,86,4.97,41.7278,82.9364,1687027784
365,quatre cocos,MU,72.09,83,5,7.27,-20.2078,57.7625,1687027784
366,pandan,PH,79.5,86,70,6.51,14.0453,124.1694,1687027409
367,kimbo,GN,77.49,93,100,5.64,10.4,-13.55,1687027785
368,tual,ID,79.39,82,100,22.35,-5.6667,132.75,1687027368
369,crucecita,AR,65.59,45,100,2.3,-28.95,-58.9833,1687027785
370,rosarito,MX,81.25,67,17,12.37,32.3333,-117.0333,1687027691
371,ouadda,CF,73.17,84,65,2.37,8.0777,22.4007,1687027785
372,mont-laurier,CA,65.82,93,100,8.57,46.5501,-75.4993,1687027410
373,albufeira,PT,76.84,45,3,15.88,37.0882,-8.2503,1687027561
374,arteche,PH,78.78,86,77,2.51,12.2645,125.4048,1687027407
375,tres arroyos,AR,49.51,48,19,6.85,-38.3739,-60.2798,1687027785
376,diboll,US,91.92,66,40,7.49,31.1871,-94.781,1687027718
377,gonaives,HT,95.04,39,100,4.07,19.45,-72.6833,1687027785
378,aksu,CN,82.45,23,100,13.38,41.1231,80.2644,1687027785
379,palmer,US,69.35,81,100,5.75,42.1584,-72.3287,1687027511
380,eastham,US,64.98,84,37,3.0,41.8301,-69.9739,1687027786
381,sanya,CN,84.36,84,40,6.71,18.2431,109.505,1687027786
382,barakani,KM,78.12,69,0,8.68,-12.1356,44.4317,1687027410
383,cradock,ZA,55.09,27,4,5.08,-32.1642,25.6192,1687027786
384,mokhsogollokh,RU,50.43,86,24,2.68,61.4681,128.9203,1687027786
385,mount isa,AU,42.57,52,87,2.3,-20.7333,139.5,1687027407
386,santo antonio,BR,76.91,80,77,10.92,-6.3106,-35.4789,1687027786
387,rehoboth,NA,57.4,17,0,9.08,-23.3167,17.0833,1687027786
388,villa regina,AR,49.98,37,81,15.05,-39.1,-67.0667,1687027786
389,praia da vitoria,PT,73.65,68,20,15.01,38.7333,-27.0667,1687027389
390,plouzane,FR,68.18,75,100,6.91,48.3833,-4.6167,1687027787
391,ilhabela,BR,68.07,68,3,9.71,-23.7781,-45.3581,1687027787
392,margate,GB,66.69,72,100,4.0,51.3813,1.3862,1687027407
393,bushtyno,UA,63.88,98,100,3.29,48.0512,23.4858,1687027787
394,playa del carmen,MX,91.89,77,5,8.79,20.6274,-87.0799,1687027777
395,bayanhongor,MN,48.02,65,28,1.97,46.7167,100.1167,1687027787
396,pocone,BR,81.5,33,0,5.91,-16.2567,-56.6228,1687027787
397,calca,PE,67.35,50,91,7.2,-13.3333,-71.95,1687027787
398,kidal,ML,101.84,15,12,7.67,18.4411,1.4078,1687027787
399,lang son,VN,75.99,97,100,2.26,21.8333,106.7333,1687027788
400,anadyr,RU,39.7,93,20,11.18,64.75,177.4833,1687027368
401,bengkulu,ID,76.3,91,94,5.68,-3.8004,102.2655,1687027788
402,dalaba,GN,67.71,93,99,2.62,10.7,-12.25,1687027788
403,oranjemund,NA,58.12,90,50,3.13,-28.55,16.4333,1687027375
404,wynyard,AU,44.98,90,9,5.48,-41.0,145.7167,1687027788
405,faya-largeau,TD,100.33,9,100,6.06,17.9257,19.1043,1687027788
406,havre,FR,77.34,53,98,9.22,49.5833,0.3333,1687027788
407,nabire,ID,74.75,93,90,3.69,-3.3667,135.4833,1687027788
408,januaria,BR,90.25,27,50,4.54,-15.4833,-44.3667,1687027788
409,n'zeto,AO,71.87,93,3,7.96,-7.2312,12.8666,1687027788
410,enewetak,MH,81.46,77,100,13.73,11.3474,162.3373,1687027382
411,yanam,IN,88.9,51,36,2.66,16.7333,82.2167,1687027789
412,bhag,PK,97.29,34,99,5.97,29.0415,67.8239,1687027789
413,ghat,LY,96.03,16,58,10.45,24.9647,10.1728,1687027789
414,poli,TZ,62.87,77,75,5.75,-3.3333,36.8,1687027789
415,baishishan,CN,62.01,95,33,3.65,43.5833,127.5667,1687027789
416,korla,CN,81.23,22,13,6.29,41.7597,86.1469,1687027789
417,tsagan aman,RU,69.4,79,33,9.13,47.5639,46.7218,1687027789
418,sandnessjoen,NO,68.52,88,100,5.12,66.0217,12.6316,1687027390
419,guixi,CN,75.25,93,100,4.07,28.2886,117.2133,1687027789
420,lospalos,TL,69.75,80,61,8.57,-8.5186,127.0025,1687027380
421,chiredzi,ZW,62.73,57,0,4.25,-21.05,31.6667,1687027790
422,cam ranh,VN,80.56,78,20,3.44,11.9214,109.1591,1687027790
423,north haven,US,76.21,62,100,12.66,41.3909,-72.8595,1687027790
424,nadym,RU,36.14,97,100,16.69,65.5333,72.5167,1687027790
425,mormugao,IN,79.86,89,40,11.5,15.4,73.8,1687027790
426,las vegas,US,90.84,31,0,5.01,36.175,-115.1372,1687027589
427,isla mujeres,MX,89.17,73,0,12.8,21.2311,-86.731,1687027790
428,mana,GF,82.31,80,9,9.64,5.6592,-53.7767,1687027396
429,tsiombe,MG,63.55,82,1,5.99,-25.3,45.4833,1687027418
430,tuensang,IN,67.96,98,100,2.77,26.2833,94.8333,1687027791
431,betio village,KI,80.64,71,95,1.99,1.358,172.9211,1687027791
432,santana do livramento,BR,56.16,62,100,5.66,-30.8908,-55.5328,1687027599
433,akureyri,IS,62.53,63,20,17.27,65.6835,-18.0878,1687027412
434,mao,ES,77.56,61,0,6.91,39.8885,4.2658,1687027791
435,limavady,GB,65.97,77,20,6.91,55.0504,-6.9507,1687027792
436,imperatriz,BR,91.45,52,75,2.3,-5.5264,-47.4917,1687027792
437,port-gentil,GA,76.78,82,100,16.44,-0.7193,8.7815,1687027792
438,yantzaza,EC,77.61,69,78,3.29,-3.8278,-78.7594,1687027792
439,port douglas,AU,71.58,84,97,6.46,-16.4833,145.4667,1687027374
440,lata,PT,72.91,63,100,7.11,40.1629,-8.3327,1687027417
441,ke-macina,ML,95.32,29,99,4.99,13.9623,-5.3572,1687027792
442,cova figueira,CV,73.26,79,100,7.34,14.8905,-24.2934,1687027792
443,nar'yan-mar,RU,37.44,73,76,14.92,67.6713,53.087,1687027366
444,inonu,TR,64.45,51,0,8.63,37.3167,33.7667,1687027793
445,taroa,MH,79.3,85,100,8.34,8.7058,171.2275,1687027793
446,bardai,NG,82.94,54,100,14.14,11.65,7.2333,1687027793
447,beira,MZ,71.69,100,0,5.99,-19.8436,34.8389,1687027793
448,bayana,IN,88.34,49,85,13.91,26.9,77.2833,1687027793
449,ta`u,AS,81.59,81,23,10.63,-14.2336,-169.5144,1687027793
450,taiping,MY,79.9,97,100,1.77,4.85,100.7333,1687027793
451,cedeira,ES,67.98,76,100,5.59,43.6797,-8.0209,1687027793
452,mitsamiouli,KM,77.29,78,20,3.44,-11.3847,43.2844,1687027794
453,kasaragod,IN,80.56,79,100,5.53,12.5,75.0,1687027794
454,gaspe,CA,52.02,87,100,9.22,48.8334,-64.4819,1687027566
455,pacific grove,US,71.35,83,75,6.91,36.6177,-121.9166,1687027794
456,tofol,FM,82.09,79,100,14.67,5.3248,163.0078,1687027794
457,tazacorte,ES,74.37,88,75,11.5,28.629,-17.9293,1687027374
458,laojunmiao,CN,61.9,30,0,8.21,39.8333,97.7333,1687027794
459,alaghsas,NE,102.09,19,8,10.36,17.0187,8.0168,1687027411
460,robbah,DZ,96.44,17,81,6.53,33.2797,6.9098,1687027794
461,talakan,RU,50.63,94,88,1.81,50.3167,130.3667,1687027420
462,santa marinella,IT,76.73,70,1,8.1,42.0345,11.8536,1687027794
463,harnai,PK,87.67,34,5,2.82,30.1005,67.9374,1687027795
464,wainwright,CA,67.89,40,88,7.25,52.839,-110.8572,1687027795
465,linxia chengguanzhen,CN,56.14,89,100,4.94,35.6003,103.2064,1687027665
466,talodi,SD,88.84,45,34,3.13,10.6325,30.3797,1687027795
467,nguti,CM,74.53,94,89,2.44,5.3299,9.4185,1687027795
468,gorom-gorom,BF,99.32,26,100,1.9,14.4439,-0.2361,1687027795
469,vakarai,LT,64.92,91,100,5.79,55.6035,23.8213,1687027795
470,conceicao da barra,BR,77.74,71,69,7.2,-18.5933,-39.7322,1687027795
471,den burg,NL,67.96,77,100,8.05,53.0542,4.7972,1687027413
472,vanimo,PG,75.34,96,100,2.62,-2.6741,141.3028,1687027795
473,kalifornsky,US,55.74,67,40,11.5,60.4183,-151.29,1687027795
474,tolbazy,RU,61.3,63,100,12.12,54.0241,55.8825,1687027796
475,cascais,PT,74.55,72,20,17.27,38.6979,-9.4215,1687027796
476,novoorsk,RU,72.25,65,100,10.96,51.381,58.9813,1687027796
477,roshal',RU,57.6,67,18,6.33,55.6685,39.8749,1687027796
478,ambasa,IN,76.82,98,100,5.08,23.9172,91.8472,1687027796
479,polatsk,BY,67.53,63,100,5.17,55.4859,28.7756,1687027540
480,castillos,UY,54.43,64,100,11.05,-34.1667,-53.8333,1687027385
481,vikhorevka,RU,60.39,68,85,3.51,56.1201,101.1636,1687027796
482,la passe,FR,80.83,79,100,8.03,45.5549,-0.8967,1687027397
483,ilula,TZ,63.14,81,0,5.03,-7.6766,36.0366,1687027796
484,canandaigua,US,74.97,58,3,1.01,42.8742,-77.288,1687027796
485,mankato,US,81.95,41,75,12.66,44.1636,-93.9994,1687027603
486,atasu,KZ,70.92,39,9,9.1,48.6814,71.6433,1687027797
487,visavadar,IN,83.97,69,100,15.97,21.3833,70.6833,1687027797
488,mossel bay,ZA,55.33,79,100,10.4,-34.1831,22.146,1687027797
489,gibara,CU,94.32,66,4,11.81,21.1097,-76.1317,1687027797
490,shalqar,KZ,84.15,16,95,5.32,47.8333,59.6,1687027797
491,klyuchi,RU,71.73,32,61,3.29,52.2667,79.1667,1687027414
492,cao bang,VN,76.62,98,100,3.62,22.6667,106.25,1687027797
493,hami,CN,79.43,13,76,11.21,42.8,93.45,1687027797
494,lamu,KE,79.02,82,10,15.95,-2.2717,40.902,1687027797
495,puerto baquerizo moreno,EC,81.59,74,75,20.71,-0.9,-89.6,1687027343
496,quellon,CL,46.65,76,20,3.44,-43.1167,-73.6167,1687027798
497,formosa do rio preto,BR,92.57,27,83,4.29,-11.0483,-45.1931,1687027798
498,tunceli,TR,70.02,41,43,3.62,39.1083,39.5471,1687027798
499,de queen,US,87.58,55,0,10.36,34.0379,-94.3413,1687027798
500,labytnangi,RU,39.85,85,100,11.34,66.6572,66.4183,1687027798
501,kolonia town,FM,82.62,79,100,15.08,6.964,158.206,1687027798
502,khanty-mansiysk,RU,48.31,61,0,2.24,61.0042,69.0019,1687027798
503,revda,RU,45.36,67,49,5.57,56.801,59.9303,1687027798
504,lufkin,US,91.53,66,40,7.09,31.3382,-94.7291,1687027798
505,kirensk,RU,51.67,66,21,1.57,57.7853,108.1119,1687027799
506,zhezqazghan,KZ,77.97,27,92,10.02,47.7833,67.7667,1687027799
507,kirksville,US,85.05,53,0,9.22,40.1948,-92.5833,1687027799
508,bangassou,CF,75.94,80,100,5.66,4.7413,22.8184,1687027799
509,anna regina,GY,82.62,72,92,7.27,7.2644,-58.5077,1687027799
510,lamas,PE,77.47,56,74,3.6,-6.4167,-76.5333,1687027799
511,nago,JP,81.03,92,100,12.37,26.5881,127.9761,1687027388
512,port blair,IN,78.84,94,40,2.3,11.6667,92.75,1687027799
513,dukhan,QA,88.5,53,29,7.45,25.4297,50.7858,1687027504
514,tosontsengel,MN,46.99,75,100,4.27,48.7567,98.2839,1687027799
515,camayenne,GN,80.69,89,75,11.5,9.535,-13.6878,1687027800
516,al muwayh,SA,91.78,11,5,10.04,22.4333,41.7583,1687027800
517,kandira,TR,66.58,95,81,3.91,41.0736,30.1746,1687027800
518,champerico,GT,93.74,69,25,7.58,14.3,-91.9167,1687027800
519,peterhead,GB,65.44,86,99,8.5,57.5058,-1.7981,1687027408
520,hotan,CN,82.08,20,31,11.5,37.0997,79.9269,1687027385
521,cooma,AU,35.17,85,0,5.66,-36.2333,149.1333,1687027801
522,ozalp,TR,56.26,46,0,3.71,38.6548,43.993,1687027801
523,pingshan,CN,77.65,93,96,4.09,22.9938,114.7131,1687027801
524,zernograd,RU,65.12,93,73,7.65,46.8452,40.3083,1687027801
525,barentu,ER,85.66,46,78,2.93,15.1139,37.5928,1687027801
526,solok,ID,68.95,88,100,2.13,-0.7918,100.6593,1687027802
527,hasaki,JP,68.22,79,4,7.09,35.7333,140.8333,1687027802
528,sechura,PE,83.34,56,0,13.24,-5.5569,-80.8222,1687027802
529,bada,RU,52.65,99,100,5.35,51.392,109.8717,1687027802
530,puyang chengguanzhen,CN,71.06,82,100,5.35,35.7028,115.0053,1687027802
531,fuglafjordur,FO,54.07,84,19,11.3,62.244,-6.814,1687027389
532,wuchuan,CN,81.43,88,100,13.73,21.4571,110.7659,1687027803
533,abra pampa,AR,53.51,6,0,2.59,-22.7205,-65.697,1687027803
534,sherwood park,CA,64.51,54,95,4.61,53.5168,-113.3187,1687027803
535,can giuoc,VN,78.84,86,100,1.68,10.6167,106.6667,1687027804
536,pasighat,IN,73.22,96,99,2.17,28.0667,95.3333,1687027804
537,sao felix do xingu,BR,87.82,48,57,1.79,-6.6447,-51.995,1687027804
538,ola,RU,46.04,91,55,1.28,59.5833,151.2833,1687027521
539,dauphin,CA,77.14,36,20,5.75,51.1494,-100.0502,1687027804
540,nenagh,IE,64.47,88,12,8.03,52.8619,-8.1967,1687027804
541,santa cruz cabralia,BR,80.83,69,40,9.22,-16.2781,-39.0247,1687027804
542,wau,SS,80.82,65,100,2.82,7.7029,27.9953,1687027805
543,tawau,MY,77.13,83,99,4.09,4.2498,117.8871,1687027805
544,taoudenni,ML,107.87,8,9,8.81,22.6783,-3.9836,1687027805
545,narre warren north,AU,50.32,87,100,5.01,-37.9833,145.3167,1687027805
546,carutapera,BR,81.86,79,16,5.55,-1.195,-46.02,1687027397
547,kisanga,TZ,74.21,67,79,2.21,-7.4362,37.7034,1687027805
548,ugoofaaru,MV,83.14,74,100,13.27,5.6667,73.0,1687027377
549,jauharabad,PK,97.95,31,0,4.43,32.2898,72.2813,1687027805
550,mazagao,BR,80.65,62,18,4.81,-0.115,-51.2894,1687027805
551,nuku'alofa,TO,64.74,100,20,0.0,-21.1333,-175.2,1687027806
552,harper,LR,78.67,79,99,6.73,4.375,-7.7169,1687027380
553,mahibadhoo,MV,82.47,74,100,9.24,3.7833,72.9667,1687027806
554,kharp,RU,39.0,93,100,8.08,66.8014,65.8081,1687027806
555,rockton,US,80.47,44,0,8.01,42.4525,-89.0723,1687027806
556,lompoc,US,81.7,83,100,6.91,34.6391,-120.4579,1687027395
557,ryotsu-minato,JP,67.3,85,11,7.81,38.0833,138.4333,1687027806
558,la ronge,CA,71.82,37,75,8.05,55.1001,-105.2842,1687027387
559,east ballina,AU,48.79,87,93,5.35,-28.8667,153.5833,1687027806
560,lincoln city,US,64.04,72,100,7.0,44.9582,-124.0179,1687027549
561,thinadhoo,MV,81.88,73,100,6.13,0.5333,72.9333,1687027807
562,sao pedro do sul,BR,59.65,80,97,4.92,-29.6206,-54.1789,1687027807
563,garhwa,IN,93.96,29,52,4.85,24.1833,83.8167,1687027807
564,kujang-up,KP,62.19,83,44,1.16,39.8672,126.0303,1687027807
565,hinton,CA,55.4,79,100,7.7,53.4001,-117.5857,1687027376
566,deschutes river woods,US,70.32,43,75,7.0,43.9915,-121.3584,1687027807
